Bike Station,Place,Place Latitude,Place Longitude,Rating,Popularity,Price
Chilco & Barclay,Kingyo Izakaya 金魚居酒屋,49.290643,-123.136956,No rating available,No popularity available,No price available
Chilco & Barclay,Tavola,49.291843,-123.135761,No rating available,No popularity available,No price available
Chilco & Barclay,Peaked Pies,49.28964,-123.138493,No rating available,No popularity available,No price available
Chilco & Barclay,Guu with Garlic,49.290278,-123.133923,No rating available,No popularity available,No price available
Chilco & Barclay,Legendary Noodle House,49.288425,-123.139849,No rating available,No popularity available,No price available
Chilco & Barclay,Delany's Coffee House,49.288307,-123.140488,No rating available,No popularity available,No price available
Chilco & Barclay,Cactus Club Cafe,49.28666,-123.14278,No rating available,No popularity available,No price available
Chilco & Barclay,Zakkushi Japanese Restaurant,49.291138,-123.136268,No rating available,No popularity available,No price available
Chilco & Barclay,Nero Belgian Waffle Bar,49.290654,-123.133874,No rating available,No popularity available,No price available
Chilco & Barclay,Marutama Ra-men,49.290515,-123.133538,No rating available,No popularity available,No price available
Chilco & Barclay,CRAFT Beer Market English Bay,49.286629,-123.14221,No rating available,No popularity available,No price available
Chilco & Barclay,Saku,49.291333,-123.134825,No rating available,No popularity available,No price available
Chilco & Barclay,Chung Chun Rice Hotdog,49.291199,-123.134732,No rating available,No popularity available,No price available
Chilco & Barclay,The Inukshuk,49.284303,-123.143552,No rating available,No popularity available,No price available
Chilco & Barclay,Greenhorn Cafe,49.286624,-123.133935,No rating available,No popularity available,No price available
Chilco & Barclay,Cardero Bottega,49.287092,-123.135598,No rating available,No popularity available,No price available
Chilco & Barclay,Pappa Roti,49.28892,-123.13113,No rating available,No popularity available,No price available
Chilco & Barclay,Ramen Danbo - Robson,49.287499,-123.12898,No rating available,No popularity available,No price available
Chilco & Barclay,Cardero's Restaurant & Marine Pub,49.291554,-123.127461,No rating available,No popularity available,No price available
Chilco & Barclay,Ukrainian Village Restaurant,49.291374,-123.135883,No rating available,No popularity available,No price available
Chilco & Barclay,Starbucks,49.287236,-123.141532,No rating available,No popularity available,No price available
Chilco & Barclay,Kosoo Restaurant,49.289064,-123.132602,No rating available,No popularity available,No price available
Chilco & Barclay,Blenz Coffee,49.290242,-123.137571,No rating available,No popularity available,No price available
Chilco & Barclay,Red Umbrella Cafe,49.286418,-123.140245,No rating available,No popularity available,No price available
Chilco & Barclay,Sylvia's Bar,49.288559,-123.142618,No rating available,No popularity available,No price available
Chilco & Barclay,Take 5 Cafe,49.290304,-123.128896,No rating available,No popularity available,No price available
Chilco & Barclay,Marble Slab Creamery,49.287329,-123.141459,No rating available,No popularity available,No price available
Chilco & Barclay,Viet Sub,49.290103,-123.133665,No rating available,No popularity available,No price available
Chilco & Barclay,H Tasting Lounge,49.29228,-123.128821,No rating available,No popularity available,No price available
Chilco & Barclay,The Park at English Bay,49.286922,-123.140937,No rating available,No popularity available,No price available
Chilco & Barclay,Cora Breakfast & Lunch,49.287551,-123.129634,No rating available,No popularity available,No price available
Chilco & Barclay,Stanley Park Brewing Restaurant & Brewpub,49.292295,-123.146508,No rating available,No popularity available,No price available
Chilco & Barclay,Menya Itto,49.288683,-123.130623,No rating available,No popularity available,No price available
Chilco & Barclay,Cafe Villaggio,49.291204,-123.127837,No rating available,No popularity available,No price available
Chilco & Barclay,Akira Sushi,49.288636,-123.140029,No rating available,No popularity available,No price available
Chilco & Barclay,Banana Leaf,49.291374,-123.13499,No rating available,No popularity available,No price available
Chilco & Barclay,Breaking Bean,49.291395,-123.129719,No rating available,No popularity available,No price available
Chilco & Barclay,A&W Restaurant,49.28964,-123.138493,No rating available,No popularity available,No price available
Chilco & Barclay,Stepho's Souvlaki Greek Taverna,49.287674,-123.129239,No rating available,No popularity available,No price available
Chilco & Barclay,H2 Kitchen + Bar,49.292136,-123.129133,No rating available,No popularity available,No price available
Chilco & Barclay,Gillaneh Grill House,49.288461,-123.139771,No rating available,No popularity available,No price available
Chilco & Barclay,Casa Dolce Gelato & Coffee,49.290849,-123.127076,No rating available,No popularity available,No price available
Chilco & Barclay,Izakaya Gon's,49.290813,-123.136078,No rating available,No popularity available,No price available
Chilco & Barclay,Olympia Restaurant,49.289408,-123.138229,No rating available,No popularity available,No price available
Chilco & Barclay,Shamrock Alley,49.287288,-123.141293,No rating available,No popularity available,No price available
Chilco & Barclay,Kintaro Ramen,49.291508,-123.135083,No rating available,No popularity available,No price available
Chilco & Barclay,The Calling Public House,49.287036,-123.141839,No rating available,No popularity available,No price available
Chilco & Barclay,Mo-Mo Sushi House,49.290288,-123.134411,No rating available,No popularity available,No price available
Chilco & Barclay,Falafel King Restaurant,49.288111,-123.140146,No rating available,No popularity available,No price available
Chilco & Barclay,Tim Hortons,49.289295,-123.139112,No rating available,No popularity available,No price available
St George & Broadway,AJ's Brooklyn Pizza Joint,49.262989,-123.098175,No rating available,No popularity available,No price available
St George & Broadway,Les Faux Bourgeois,49.257306,-123.089824,No rating available,No popularity available,No price available
St George & Broadway,The Gluten Free Epicurean,49.257337,-123.090395,No rating available,No popularity available,No price available
St George & Broadway,Osteria Savio Volpe,49.257425,-123.09097,No rating available,No popularity available,No price available
St George & Broadway,Matchstick Coffee,49.257296,-123.090229,No rating available,No popularity available,No price available
St George & Broadway,Nemesis Coffee,49.267091,-123.092602,No rating available,No popularity available,No price available
St George & Broadway,Cartems Donuterie,49.265642,-123.100591,No rating available,No popularity available,No price available
St George & Broadway,Sal y Limon,49.256878,-123.08922,No rating available,No popularity available,No price available
St George & Broadway,33 Acres Brewing Co,49.263877,-123.105307,No rating available,No popularity available,No price available
St George & Broadway,49th Parallel Coffee Roast,49.259164,-123.100851,No rating available,No popularity available,No price available
St George & Broadway,Brassneck Brewery,49.265811,-123.100605,No rating available,No popularity available,No price available
St George & Broadway,Elysian Coffee,49.264531,-123.105038,No rating available,No popularity available,No price available
St George & Broadway,Toshi Sushi,49.256698,-123.101858,No rating available,No popularity available,No price available
St George & Broadway,The Federal Store,49.261909,-123.103193,No rating available,No popularity available,No price available
St George & Broadway,Main Street Brewing Co,49.264745,-123.099216,No rating available,No popularity available,No price available
St George & Broadway,Fox Cabaret,49.264298,-123.101206,No rating available,No popularity available,No price available
St George & Broadway,12 Kings Pub,49.260337,-123.096652,No rating available,No popularity available,No price available
St George & Broadway,R & B Brewing Inc,49.26727,-123.103568,No rating available,No popularity available,No price available
St George & Broadway,Anh and Chi,49.255019,-123.100904,No rating available,No popularity available,No price available
St George & Broadway,Hime Japanese Restaurant,49.262963,-123.09874,No rating available,No popularity available,No price available
St George & Broadway,Pure Bread,49.266631,-123.104568,No rating available,No popularity available,No price available
St George & Broadway,Ignite Pizzeria,49.262233,-123.100706,No rating available,No popularity available,No price available
St George & Broadway,Kranky Cafe,49.267206,-123.09975,No rating available,No popularity available,No price available
St George & Broadway,Narrow Lounge,49.268334,-123.100495,No rating available,No popularity available,No price available
St George & Broadway,Fife Bakery,49.268088,-123.10307,No rating available,No popularity available,No price available
St George & Broadway,Red Truck Beer,49.268585,-123.097272,No rating available,No popularity available,No price available
St George & Broadway,Uncle Abe's,49.258129,-123.100925,No rating available,No popularity available,No price available
St George & Broadway,Burdock & Co,49.260915,-123.100756,No rating available,No popularity available,No price available
St George & Broadway,Sushi Hil,49.255379,-123.101015,No rating available,No popularity available,No price available
St George & Broadway,33 Brewing Experiment,49.263903,-123.105634,No rating available,No popularity available,No price available
St George & Broadway,Electric Bicycle Brewing,49.267115,-123.104285,No rating available,No popularity available,No price available
St George & Broadway,Sing Sing Beer Bar,49.260652,-123.100815,No rating available,No popularity available,No price available
St George & Broadway,JJ Bean Coffee Roasters,49.258242,-123.100935,No rating available,No popularity available,No price available
St George & Broadway,The General Public,49.255843,-123.101541,No rating available,No popularity available,No price available
St George & Broadway,Nirvana Restaurant,49.264411,-123.101216,No rating available,No popularity available,No price available
St George & Broadway,Tacofino Ocho,49.266312,-123.104622,No rating available,No popularity available,No price available
St George & Broadway,Colony Bar Main Street,49.258994,-123.100836,No rating available,No popularity available,No price available
St George & Broadway,Gene Coffeebar,49.263721,-123.100671,No rating available,No popularity available,No price available
St George & Broadway,Forecast Coffee,49.258541,-123.100798,No rating available,No popularity available,No price available
St George & Broadway,Bells and Whistles,49.255678,-123.089524,No rating available,No popularity available,No price available
St George & Broadway,Lucy's Eastside Diner,49.260971,-123.100761,No rating available,No popularity available,No price available
St George & Broadway,Pho Long Restaurant,49.254901,-123.090188,No rating available,No popularity available,No price available
St George & Broadway,Caffe Barney,49.262516,-123.10073,No rating available,No popularity available,No price available
St George & Broadway,Como Taperia,49.264715,-123.100431,No rating available,No popularity available,No price available
St George & Broadway,Tim Hortons,49.266273,-123.084421,No rating available,No popularity available,No price available
St George & Broadway,Blenz Coffee,49.26399,-123.08082,No rating available,No popularity available,No price available
St George & Broadway,Domino's Pizza,49.262677,-123.091578,No rating available,No popularity available,No price available
St George & Broadway,Vera's Burger Shack,49.259015,-123.100919,No rating available,No popularity available,No price available
St George & Broadway,Hail Mary's,49.262352,-123.089604,No rating available,No popularity available,No price available
St George & Broadway,Noor Convienience & Donair,49.262311,-123.089438,No rating available,No popularity available,No price available
Britannia Parking Lot,East Vancouver Brewing Co,49.276863,-123.071283,No rating available,No popularity available,No price available
Britannia Parking Lot,The Downlow Chicken Shack,49.276378,-123.069781,No rating available,No popularity available,No price available
Britannia Parking Lot,Pepino's,49.278808,-123.070636,No rating available,No popularity available,No price available
Britannia Parking Lot,Fujiya Japanese Foods,49.276572,-123.077019,No rating available,No popularity available,No price available
Britannia Parking Lot,Bomber Brewing,49.277477,-123.074418,No rating available,No popularity available,No price available
Britannia Parking Lot,Havana,49.273731,-123.069395,No rating available,No popularity available,No price available
Britannia Parking Lot,Via Tevere Pizzeria,49.273873,-123.065512,No rating available,No popularity available,No price available
Britannia Parking Lot,The Lunch Lady,49.274972,-123.069257,No rating available,No popularity available,No price available
Britannia Parking Lot,Sula Indian Restaurant,49.274442,-123.069131,No rating available,No popularity available,No price available
Britannia Parking Lot,Strange Fellows Brewing,49.272444,-123.077805,No rating available,No popularity available,No price available
Britannia Parking Lot,TimberTrain,49.279794,-123.074371,No rating available,No popularity available,No price available
Britannia Parking Lot,Ginger Sushi,49.271667,-123.069788,No rating available,No popularity available,No price available
Britannia Parking Lot,Storm Brewing Ltd,49.28202,-123.070178,No rating available,No popularity available,No price available
Britannia Parking Lot,La Casa Gelato,49.276991,-123.081598,No rating available,No popularity available,No price available
Britannia Parking Lot,Pallet Coffee Roasters,49.28179,-123.063911,No rating available,No popularity available,No price available
Britannia Parking Lot,A. Bosa and Company Ltd. Import Euro,49.279449,-123.065416,No rating available,No popularity available,No price available
Britannia Parking Lot,Yolks,49.28108,-123.072857,No rating available,No popularity available,No price available
Britannia Parking Lot,La Grotta Del Formaggio,49.268804,-123.06987,No rating available,No popularity available,No price available
Britannia Parking Lot,Moja Coffee,49.274709,-123.069316,No rating available,No popularity available,No price available
Britannia Parking Lot,Sopra Sotto,49.27109,-123.069252,No rating available,No popularity available,No price available
Britannia Parking Lot,Turk's on the Drive,49.273268,-123.069761,No rating available,No popularity available,No price available
Britannia Parking Lot,Earnest Ice Cream,49.27967,-123.074767,No rating available,No popularity available,No price available
Britannia Parking Lot,Powell Street Craft Brewery,49.283346,-123.075727,No rating available,No popularity available,No price available
Britannia Parking Lot,Andina Brewing Co,49.283433,-123.073625,No rating available,No popularity available,No price available
Britannia Parking Lot,Prado Cafe,49.267213,-123.069492,No rating available,No popularity available,No price available
Britannia Parking Lot,Superflux Beer Co,49.28014,-123.077322,No rating available,No popularity available,No price available
Britannia Parking Lot,Caffe la Tana,49.278829,-123.070719,No rating available,No popularity available,No price available
Britannia Parking Lot,Volcano Sushi & Grill,49.281435,-123.064043,No rating available,No popularity available,No price available
Britannia Parking Lot,Marcello Ristorante & Pizzeria,49.272017,-123.069412,No rating available,No popularity available,No price available
Britannia Parking Lot,Pink Pearl Chinese Seafood Restaurant,49.280677,-123.080369,No rating available,No popularity available,No price available
Britannia Parking Lot,Livia Bakery,49.27229,-123.069841,No rating available,No popularity available,No price available
Britannia Parking Lot,Luppolo Brewing Co,49.276934,-123.080701,No rating available,No popularity available,No price available
Britannia Parking Lot,The Dime,49.270745,-123.069872,No rating available,No popularity available,No price available
Britannia Parking Lot,Victoria Park Cafe,49.27116,-123.065526,No rating available,No popularity available,No price available
Britannia Parking Lot,Windjammer,49.275981,-123.069748,No rating available,No popularity available,No price available
Britannia Parking Lot,The Charlatan,49.271667,-123.069788,No rating available,No popularity available,No price available
Britannia Parking Lot,Red Burrito,49.269473,-123.06944,No rating available,No popularity available,No price available
Britannia Parking Lot,Kojima Sushi,49.268155,-123.069491,No rating available,No popularity available,No price available
Britannia Parking Lot,Pelican Seafood Restaurant,49.281534,-123.065999,No rating available,No popularity available,No price available
Britannia Parking Lot,Andy's Bakery Ltd,49.2763,-123.069694,No rating available,No popularity available,No price available
Britannia Parking Lot,Gatley Lifestyle Store,49.274437,-123.069779,No rating available,No popularity available,No price available
Britannia Parking Lot,Wilder Juice,49.274709,-123.069316,No rating available,No popularity available,No price available
Britannia Parking Lot,City Bistro European Food and DELI,49.273237,-123.069191,No rating available,No popularity available,No price available
Britannia Parking Lot,Takenaka,49.278276,-123.075622,No rating available,No popularity available,No price available
Britannia Parking Lot,Khoe,49.278389,-123.075632,No rating available,No popularity available,No price available
Britannia Parking Lot,Mum's the Word,49.272403,-123.06985,No rating available,No popularity available,No price available
Britannia Parking Lot,Al Basha,49.272233,-123.069836,No rating available,No popularity available,No price available
Britannia Parking Lot,Cozen,49.271687,-123.069871,No rating available,No popularity available,No price available
Britannia Parking Lot,Merci Beaucoup Cafe,49.27162,-123.069378,No rating available,No popularity available,No price available
Britannia Parking Lot,Bar Corso,49.270848,-123.069394,No rating available,No popularity available,No price available
Morton & Denman,Cactus Club Cafe,49.28666,-123.14278,No rating available,No popularity available,No price available
Morton & Denman,CRAFT Beer Market English Bay,49.286629,-123.14221,No rating available,No popularity available,No price available
Morton & Denman,Delany's Coffee House,49.288307,-123.140488,No rating available,No popularity available,No price available
Morton & Denman,Legendary Noodle House,49.288425,-123.139849,No rating available,No popularity available,No price available
Morton & Denman,The Inukshuk,49.284303,-123.143552,No rating available,No popularity available,No price available
Morton & Denman,Kingyo Izakaya 金魚居酒屋,49.290643,-123.136956,No rating available,No popularity available,No price available
Morton & Denman,Peaked Pies,49.28964,-123.138493,No rating available,No popularity available,No price available
Morton & Denman,Starbucks,49.287236,-123.141532,No rating available,No popularity available,No price available
Morton & Denman,Tavola,49.291843,-123.135761,No rating available,No popularity available,No price available
Morton & Denman,Guu with Garlic,49.290278,-123.133923,No rating available,No popularity available,No price available
Morton & Denman,Cardero Bottega,49.287092,-123.135598,No rating available,No popularity available,No price available
Morton & Denman,Greenhorn Cafe,49.286624,-123.133935,No rating available,No popularity available,No price available
Morton & Denman,Red Umbrella Cafe,49.286418,-123.140245,No rating available,No popularity available,No price available
Morton & Denman,Sylvia's Bar,49.288559,-123.142618,No rating available,No popularity available,No price available
Morton & Denman,Marble Slab Creamery,49.287329,-123.141459,No rating available,No popularity available,No price available
Morton & Denman,Saku,49.291333,-123.134825,No rating available,No popularity available,No price available
Morton & Denman,The Park at English Bay,49.286922,-123.140937,No rating available,No popularity available,No price available
Morton & Denman,Nero Belgian Waffle Bar,49.290654,-123.133874,No rating available,No popularity available,No price available
Morton & Denman,Pappa Roti,49.28892,-123.13113,No rating available,No popularity available,No price available
Morton & Denman,Marutama Ra-men,49.290515,-123.133538,No rating available,No popularity available,No price available
Morton & Denman,Score on Davie,49.282285,-123.134538,No rating available,No popularity available,No price available
Morton & Denman,Ramen Danbo - Robson,49.287499,-123.12898,No rating available,No popularity available,No price available
Morton & Denman,Zakkushi Japanese Restaurant,49.291138,-123.136268,No rating available,No popularity available,No price available
Morton & Denman,Chung Chun Rice Hotdog,49.291199,-123.134732,No rating available,No popularity available,No price available
Morton & Denman,Kosoo Restaurant,49.289064,-123.132602,No rating available,No popularity available,No price available
Morton & Denman,La Belle Patate,49.282095,-123.133548,No rating available,No popularity available,No price available
Morton & Denman,Ukrainian Village Restaurant,49.291374,-123.135883,No rating available,No popularity available,No price available
Morton & Denman,Blenz Coffee,49.290242,-123.137571,No rating available,No popularity available,No price available
Morton & Denman,Melriches Coffeehouse,49.282224,-123.134289,No rating available,No popularity available,No price available
Morton & Denman,Take 5 Cafe,49.290304,-123.128896,No rating available,No popularity available,No price available
Morton & Denman,Akira Sushi,49.288636,-123.140029,No rating available,No popularity available,No price available
Morton & Denman,Cora Breakfast & Lunch,49.287551,-123.129634,No rating available,No popularity available,No price available
Morton & Denman,Viet Sub,49.290103,-123.133665,No rating available,No popularity available,No price available
Morton & Denman,Shamrock Alley,49.287288,-123.141293,No rating available,No popularity available,No price available
Morton & Denman,Menya Itto,49.288683,-123.130623,No rating available,No popularity available,No price available
Morton & Denman,Gillaneh Grill House,49.288461,-123.139771,No rating available,No popularity available,No price available
Morton & Denman,Matchstick,49.282738,-123.134576,No rating available,No popularity available,No price available
Morton & Denman,The Calling Public House,49.287036,-123.141839,No rating available,No popularity available,No price available
Morton & Denman,Stanley Park Brewing Restaurant & Brewpub,49.292295,-123.146508,No rating available,No popularity available,No price available
Morton & Denman,Timber,49.286953,-123.129015,No rating available,No popularity available,No price available
Morton & Denman,Stepho's Souvlaki Greek Taverna,49.287674,-123.129239,No rating available,No popularity available,No price available
Morton & Denman,Davie Dosa Co,49.282249,-123.133723,No rating available,No popularity available,No price available
Morton & Denman,A&W Restaurant,49.28964,-123.138493,No rating available,No popularity available,No price available
Morton & Denman,Breaking Bean,49.291395,-123.129719,No rating available,No popularity available,No price available
Morton & Denman,Banana Leaf,49.291374,-123.13499,No rating available,No popularity available,No price available
Morton & Denman,Olympia Restaurant,49.289408,-123.138229,No rating available,No popularity available,No price available
Morton & Denman,Izakaya Gon's,49.290813,-123.136078,No rating available,No popularity available,No price available
Morton & Denman,Mo-Mo Sushi House,49.290288,-123.134411,No rating available,No popularity available,No price available
Morton & Denman,Tim Hortons,49.289295,-123.139112,No rating available,No popularity available,No price available
Morton & Denman,Kintaro Ramen,49.291508,-123.135083,No rating available,No popularity available,No price available
Thornton & National,Pizzeria Farina,49.276561,-123.10014,No rating available,No popularity available,No price available
Thornton & National,Phnom Penh,49.278403,-123.098188,No rating available,No popularity available,No price available
Thornton & National,Creekside Park,49.274585,-123.102893,No rating available,No popularity available,No price available
Thornton & National,Earnest Ice Cream,49.268876,-123.102894,No rating available,No popularity available,No price available
Thornton & National,Torafuku,49.275928,-123.0996,No rating available,No popularity available,No price available
Thornton & National,Keefer Bar,49.279619,-123.101293,No rating available,No popularity available,No price available
Thornton & National,Bao Bei,49.279609,-123.100805,No rating available,No popularity available,No price available
Thornton & National,Oyster Express,49.279309,-123.097372,No rating available,No popularity available,No price available
Thornton & National,Nemesis Coffee,49.267091,-123.092602,No rating available,No popularity available,No price available
Thornton & National,La Casa Gelato,49.276991,-123.081598,No rating available,No popularity available,No price available
Thornton & National,Mello,49.280489,-123.098771,No rating available,No popularity available,No price available
Thornton & National,Kissa Tanto,49.28055,-123.098127,No rating available,No popularity available,No price available
Thornton & National,Salt Tasting Room,49.280282,-123.098881,No rating available,No popularity available,No price available
Thornton & National,Narrow Lounge,49.268334,-123.100495,No rating available,No popularity available,No price available
Thornton & National,Red Truck Beer,49.268585,-123.097272,No rating available,No popularity available,No price available
Thornton & National,Finch's Market,49.278582,-123.093335,No rating available,No popularity available,No price available
Thornton & National,Chinatown BBQ,49.280546,-123.101453,No rating available,No popularity available,No price available
Thornton & National,Bodega on Main,49.275439,-123.099639,No rating available,No popularity available,No price available
Thornton & National,Gusto a Taste of Italy,49.271332,-123.105861,No rating available,No popularity available,No price available
Thornton & National,Fife Bakery,49.268088,-123.10307,No rating available,No popularity available,No price available
Thornton & National,Tractor Foods - Olympic Village,49.269535,-123.102869,No rating available,No popularity available,No price available
Thornton & National,Kranky Cafe,49.267206,-123.09975,No rating available,No popularity available,No price available
Thornton & National,Juke,49.279372,-123.100298,No rating available,No popularity available,No price available
Thornton & National,Propaganda Coffee,49.280499,-123.099259,No rating available,No popularity available,No price available
Thornton & National,American Hotel,49.276324,-123.099634,No rating available,No popularity available,No price available
Thornton & National,Dosanko,49.282756,-123.092067,No rating available,No popularity available,No price available
Thornton & National,Amato Gelato Cafe,49.270065,-123.102995,No rating available,No popularity available,No price available
Thornton & National,Upstairs at Campagnolo,49.275382,-123.099635,No rating available,No popularity available,No price available
Thornton & National,Brickhouse Late Nite Bistro & Bar,49.277848,-123.09952,No rating available,No popularity available,No price available
Thornton & National,New Town Bakery & Restaurant,49.280309,-123.100946,No rating available,No popularity available,No price available
Thornton & National,Starbucks,49.271053,-123.087585,No rating available,No popularity available,No price available
Thornton & National,The Ramen Butcher,49.278661,-123.098778,No rating available,No popularity available,No price available
Thornton & National,Tap & Barrel,49.271827,-123.106065,No rating available,No popularity available,No price available
Thornton & National,Wilder Snail,49.279398,-123.087482,No rating available,No popularity available,No price available
Thornton & National,Luppolo Brewing Co,49.276934,-123.080701,No rating available,No popularity available,No price available
Thornton & National,Starbucks,49.269499,-123.102947,No rating available,No popularity available,No price available
Thornton & National,Hogan's Alley Cafe,49.27776,-123.09716,No rating available,No popularity available,No price available
Thornton & National,Prototype Coffee Inc,49.281214,-123.085202,No rating available,No popularity available,No price available
Thornton & National,The Emerald,49.279706,-123.097406,No rating available,No popularity available,No price available
Thornton & National,Fat Mao Noodles,49.278692,-123.099348,No rating available,No popularity available,No price available
Thornton & National,Pat's Pub & Brewhouse,49.281409,-123.095117,No rating available,No popularity available,No price available
Thornton & National,The Heatley,49.28101,-123.089728,No rating available,No popularity available,No price available
Thornton & National,Boss Bakery & Restaurant,49.279938,-123.099454,No rating available,No popularity available,No price available
Thornton & National,Brewhall,49.269396,-123.103425,No rating available,No popularity available,No price available
Thornton & National,Floata Seafood Restaurant 富大海鮮酒家,49.278996,-123.10124,No rating available,No popularity available,No price available
Thornton & National,Tim Hortons,49.279279,-123.099479,No rating available,No popularity available,No price available
Thornton & National,Bibi's Kitchen,49.271643,-123.094855,No rating available,No popularity available,No price available
Thornton & National,London Pub,49.278471,-123.099573,No rating available,No popularity available,No price available
Thornton & National,Kam Wai Dim Sum,49.280576,-123.098454,No rating available,No popularity available,No price available
Thornton & National,Jade Dynasty Restaurant,49.280572,-123.100887,No rating available,No popularity available,No price available
Burrard & 14th,Small Victory,49.258291,-123.138568,No rating available,No popularity available,No price available
Burrard & 14th,Suika,49.263522,-123.141773,No rating available,No popularity available,No price available
Burrard & 14th,Beaucoup Bakery & Cafe,49.266477,-123.140728,No rating available,No popularity available,No price available
Burrard & 14th,Rain or Shine Ice Cream,49.267929,-123.1488,No rating available,No popularity available,No price available
Burrard & 14th,Cheesecake Etc,49.266415,-123.138696,No rating available,No popularity available,No price available
Burrard & 14th,Farmer's Apprentice Restaurant,49.266297,-123.139334,No rating available,No popularity available,No price available
Burrard & 14th,Maenam,49.267913,-123.148961,No rating available,No popularity available,No price available
Burrard & 14th,Bin 4 Burger Lounge,49.259007,-123.138549,No rating available,No popularity available,No price available
Burrard & 14th,Breakfast Table,49.263821,-123.138068,No rating available,No popularity available,No price available
Burrard & 14th,Gyo Para Gyoza & Ramen Bar,49.263542,-123.153452,No rating available,No popularity available,No price available
Burrard & 14th,Tractor Everyday Healthy Foods,49.268217,-123.148176,No rating available,No popularity available,No price available
Burrard & 14th,Paul's Place Restaurant & Omelettery,49.265962,-123.138657,No rating available,No popularity available,No price available
Burrard & 14th,Dose Espresso Bar,49.263749,-123.139116,No rating available,No popularity available,No price available
Burrard & 14th,Edible Flours,49.263706,-123.156791,No rating available,No popularity available,No price available
Burrard & 14th,Cactus Club Cafe West Broadway,49.263435,-123.139414,No rating available,No popularity available,No price available
Burrard & 14th,Tangram Creamery,49.261673,-123.153292,No rating available,No popularity available,No price available
Burrard & 14th,Blue Star Japanese Bistro,49.268212,-123.148824,No rating available,No popularity available,No price available
Burrard & 14th,Sweet Barrel Coffee Roasters and Creamery,49.261318,-123.153424,No rating available,No popularity available,No price available
Burrard & 14th,Napoletana Pizza,49.263038,-123.15276,No rating available,No popularity available,No price available
Burrard & 14th,Grapes & Soda,49.266302,-123.139578,No rating available,No popularity available,No price available
Burrard & 14th,Pallet Coffee Roasters Broadway Inc,49.263599,-123.150781,No rating available,No popularity available,No price available
Burrard & 14th,Caffe Barney,49.259223,-123.138972,No rating available,No popularity available,No price available
Burrard & 14th,Earls Restaurant,49.263893,-123.14148,No rating available,No popularity available,No price available
Burrard & 14th,Elysian Room,49.267038,-123.144993,No rating available,No popularity available,No price available
Burrard & 14th,Plaisir Sucre Bakery Ltd,49.262209,-123.15277,No rating available,No popularity available,No price available
Burrard & 14th,Akbar's Own Dining Lounge,49.263923,-123.148295,No rating available,No popularity available,No price available
Burrard & 14th,Trees Organic Coffee,49.263424,-123.14071,No rating available,No popularity available,No price available
Burrard & 14th,Blenz Coffee,49.263527,-123.150045,No rating available,No popularity available,No price available
Burrard & 14th,Masa Japanese Restaurant,49.263414,-123.136655,No rating available,No popularity available,No price available
Burrard & 14th,Carlos O'Bryan's Pub,49.265334,-123.145496,No rating available,No popularity available,No price available
Burrard & 14th,"Happy Lamb Hot Pot, Vancouver",49.263445,-123.145253,No rating available,No popularity available,No price available
Burrard & 14th,Wicked Cafe,49.265432,-123.135854,No rating available,No popularity available,No price available
Burrard & 14th,Denny's,49.263838,-123.144824,No rating available,No popularity available,No price available
Burrard & 14th,Tim Hortons,49.2638,-123.140661,No rating available,No popularity available,No price available
Burrard & 14th,Boston Pizza,49.263692,-123.134651,No rating available,No popularity available,No price available
Burrard & 14th,Starbucks,49.263141,-123.138902,No rating available,No popularity available,No price available
Burrard & 14th,Jitters Caffe,49.267944,-123.149531,No rating available,No popularity available,No price available
Burrard & 14th,Hot Dog Stand,49.263373,-123.144517,No rating available,No popularity available,No price available
Burrard & 14th,Viet Flavour Restaurant,49.263527,-123.146477,No rating available,No popularity available,No price available
Burrard & 14th,Pineway Restaurant,49.263903,-123.144644,No rating available,No popularity available,No price available
Burrard & 14th,Yu Noodle House,49.26397,-123.146028,No rating available,No popularity available,No price available
Burrard & 14th,Kits Indian Restaurant,49.26414,-123.146043,No rating available,No popularity available,No price available
Burrard & 14th,Lan Fong Yuen 蘭芳園,49.263918,-123.148943,No rating available,No popularity available,No price available
Burrard & 14th,Lan Fong Yuen 蘭芳園,49.263918,-123.148943,No rating available,No popularity available,No price available
Burrard & 14th,Mazahr Lebanese Kitchen,49.261545,-123.138279,No rating available,No popularity available,No price available
Burrard & 14th,Brown Rice Sushi,49.264891,-123.145945,No rating available,No popularity available,No price available
Burrard & 14th,Ameresco Canada Inc,49.262338,-123.138347,No rating available,No popularity available,No price available
Burrard & 14th,McDonald's,49.263445,-123.138117,No rating available,No popularity available,No price available
Burrard & 14th,Delhi6,49.265211,-123.144999,No rating available,No popularity available,No price available
Burrard & 14th,5 Spice,49.263821,-123.13896,No rating available,No popularity available,No price available
Olympic Village Station,Caffe Cittadella,49.26473,-123.116978,No rating available,No popularity available,No price available
Olympic Village Station,Rogue Kitchen & Wetbar,49.263123,-123.117652,No rating available,No popularity available,No price available
Olympic Village Station,Marulilu Cafe,49.263328,-123.11402,No rating available,No popularity available,No price available
Olympic Village Station,Elysian Coffee Broadway,49.263077,-123.117243,No rating available,No popularity available,No price available
Olympic Village Station,Milano Coffee,49.263724,-123.108701,No rating available,No popularity available,No price available
Olympic Village Station,Peaceful Restaurant,49.263051,-123.116024,No rating available,No popularity available,No price available
Olympic Village Station,Solly's Bagelry,49.264703,-123.112191,No rating available,No popularity available,No price available
Olympic Village Station,33 Acres Brewing Co,49.263877,-123.105307,No rating available,No popularity available,No price available
Olympic Village Station,Elysian Coffee,49.264531,-123.105038,No rating available,No popularity available,No price available
Olympic Village Station,Nook,49.269521,-123.109276,No rating available,No popularity available,No price available
Olympic Village Station,Modus Coffee,49.263182,-123.107195,No rating available,No popularity available,No price available
Olympic Village Station,Terra Breads,49.271451,-123.107006,No rating available,No popularity available,No price available
Olympic Village Station,Earnest Ice Cream,49.268876,-123.102894,No rating available,No popularity available,No price available
Olympic Village Station,Pure Bread,49.266631,-123.104568,No rating available,No popularity available,No price available
Olympic Village Station,OEB Breakfast Co,49.273374,-123.119419,No rating available,No popularity available,No price available
Olympic Village Station,The Wicklow Pub,49.268684,-123.118613,No rating available,No popularity available,No price available
Olympic Village Station,R & B Brewing Inc,49.26727,-123.103568,No rating available,No popularity available,No price available
Olympic Village Station,JJ Bean Coffee Roasters,49.270118,-123.109002,No rating available,No popularity available,No price available
Olympic Village Station,Vij's,49.257484,-123.11482,No rating available,No popularity available,No price available
Olympic Village Station,La Terrazza,49.274887,-123.118818,No rating available,No popularity available,No price available
Olympic Village Station,CRAFT Beer Market Vancouver,49.270591,-123.106447,No rating available,No popularity available,No price available
Olympic Village Station,Faculty Brewing Co,49.268552,-123.104488,No rating available,No popularity available,No price available
Olympic Village Station,Provence Marinaside,49.273338,-123.119497,No rating available,No popularity available,No price available
Olympic Village Station,Dynasty Seafood Restaurant 皇朝海鮮酒家,49.263675,-123.12143,No rating available,No popularity available,No price available
Olympic Village Station,Gusto a Taste of Italy,49.271332,-123.105861,No rating available,No popularity available,No price available
Olympic Village Station,Fife Bakery,49.268088,-123.10307,No rating available,No popularity available,No price available
Olympic Village Station,33 Brewing Experiment,49.263903,-123.105634,No rating available,No popularity available,No price available
Olympic Village Station,Mahony & Sons,49.26908,-123.118647,No rating available,No popularity available,No price available
Olympic Village Station,Electric Bicycle Brewing,49.267115,-123.104285,No rating available,No popularity available,No price available
Olympic Village Station,Banana Leaf,49.263207,-123.122445,No rating available,No popularity available,No price available
Olympic Village Station,Tacofino Ocho,49.266312,-123.104622,No rating available,No popularity available,No price available
Olympic Village Station,Salsa & Agave Mexican Grill,49.274054,-123.122154,No rating available,No popularity available,No price available
Olympic Village Station,Argo Cafe,49.268608,-123.104493,No rating available,No popularity available,No price available
Olympic Village Station,Big Rock Brewery Ltd,49.267411,-123.111042,No rating available,No popularity available,No price available
Olympic Village Station,Tap & Barrel,49.271827,-123.106065,No rating available,No popularity available,No price available
Olympic Village Station,Wendy's,49.263714,-123.114614,No rating available,No popularity available,No price available
Olympic Village Station,Ophelia,49.269552,-123.108061,No rating available,No popularity available,No price available
Olympic Village Station,Starbucks,49.273405,-123.119989,No rating available,No popularity available,No price available
Olympic Village Station,Tropika Malaysian & Thai Cuisine 星馬印,49.25887,-123.115262,No rating available,No popularity available,No price available
Olympic Village Station,Brewhall,49.269396,-123.103425,No rating available,No popularity available,No price available
Olympic Village Station,Tim Hortons,49.263583,-123.123288,No rating available,No popularity available,No price available
Olympic Village Station,Le Bread Pan Cafe Bakery,49.267047,-123.119609,No rating available,No popularity available,No price available
Olympic Village Station,Blenz Coffee,49.263421,-123.115731,No rating available,No popularity available,No price available
Olympic Village Station,Pho Extreme Xe Lua,49.26339,-123.114269,No rating available,No popularity available,No price available
Olympic Village Station,Mr. Japanese Curry,49.263756,-123.113732,No rating available,No popularity available,No price available
Olympic Village Station,Tractor,49.263546,-123.118013,No rating available,No popularity available,No price available
Olympic Village Station,Foundry,49.268379,-123.112261,No rating available,No popularity available,No price available
Olympic Village Station,Honjin Sushi,49.273601,-123.121223,No rating available,No popularity available,No price available
Olympic Village Station,Stages Restaurant & Lounge,49.263515,-123.120119,No rating available,No popularity available,No price available
Olympic Village Station,Java Express,49.262578,-123.119471,No rating available,No popularity available,No price available
8th & Macdonald,Olive and Ruby Cafe,49.26427,-123.169326,No rating available,No popularity available,No price available
8th & Macdonald,Sunshine Diner,49.264168,-123.165344,No rating available,No popularity available,No price available
8th & Macdonald,Parthenon Supermarket,49.264037,-123.173523,No rating available,No popularity available,No price available
8th & Macdonald,Cafe Lokal,49.268153,-123.164876,No rating available,No popularity available,No price available
8th & Macdonald,Raisu,49.268036,-123.158378,No rating available,No popularity available,No price available
8th & Macdonald,Linh Cafe,49.268162,-123.168931,No rating available,No popularity available,No price available
8th & Macdonald,Chewie's Biscuit Co,49.268121,-123.168765,No rating available,No popularity available,No price available
8th & Macdonald,Green Leaf Sushi,49.264138,-123.18018,No rating available,No popularity available,No price available
8th & Macdonald,Neverland Tea Salon,49.264037,-123.173523,No rating available,No popularity available,No price available
8th & Macdonald,White Spot Kitsilano,49.263844,-123.163371,No rating available,No popularity available,No price available
8th & Macdonald,The Naam Restaurant,49.268235,-123.166991,No rating available,No popularity available,No price available
8th & Macdonald,Maria's Taverna,49.268087,-123.158139,No rating available,No popularity available,No price available
8th & Macdonald,The Eatery,49.264468,-123.180614,No rating available,No popularity available,No price available
8th & Macdonald,Delara,49.268056,-123.156677,No rating available,No popularity available,No price available
8th & Macdonald,Darby's Pub,49.268116,-123.168521,No rating available,No popularity available,No price available
8th & Macdonald,Peaceful Restaurant,49.268082,-123.15968,No rating available,No popularity available,No price available
8th & Macdonald,Rowan's Roof,49.267984,-123.158617,No rating available,No popularity available,No price available
8th & Macdonald,Tang's Bistro,49.26427,-123.168434,No rating available,No popularity available,No price available
8th & Macdonald,Pho Japolo,49.264239,-123.168756,No rating available,No popularity available,No price available
8th & Macdonald,Bon Macaron Patisserie,49.264245,-123.169,No rating available,No popularity available,No price available
8th & Macdonald,inTea 因為茶,49.263761,-123.167499,No rating available,No popularity available,No price available
8th & Macdonald,Ramen House,49.264249,-123.170135,No rating available,No popularity available,No price available
8th & Macdonald,Ah Long Sushi,49.264189,-123.166319,No rating available,No popularity available,No price available
8th & Macdonald,Cafe Mumbai,49.264249,-123.170135,No rating available,No popularity available,No price available
8th & Macdonald,JJ Bean,49.263843,-123.170506,No rating available,No popularity available,No price available
8th & Macdonald,Coppertank Grill,49.264325,-123.174683,No rating available,No popularity available,No price available
8th & Macdonald,Pokay Vancouver,49.264383,-123.172012,No rating available,No popularity available,No price available
8th & Macdonald,Kitstaya Sushi,49.264315,-123.174195,No rating available,No popularity available,No price available
8th & Macdonald,Big Johnny's Pizza House,49.268219,-123.168936,No rating available,No popularity available,No price available
8th & Macdonald,Browns Socialhouse Kitsilano,49.268087,-123.157247,No rating available,No popularity available,No price available
8th & Macdonald,Little Bird Dim Sum + Craft Beer,49.268218,-123.171612,No rating available,No popularity available,No price available
8th & Macdonald,Artistry Coffee Shop,49.268615,-123.170754,No rating available,No popularity available,No price available
8th & Macdonald,Mamalee,49.264068,-123.174985,No rating available,No popularity available,No price available
8th & Macdonald,Haidilao Hotpot,49.264402,-123.175662,No rating available,No popularity available,No price available
8th & Macdonald,Haidilao Canada Restaurant Group Ltd,49.264037,-123.176198,No rating available,No popularity available,No price available
8th & Macdonald,Vine and Hops - Wine and Craft Beer Tours,49.267196,-123.160577,No rating available,No popularity available,No price available
8th & Macdonald,LanZhou Beef Noodle,49.264381,-123.176471,No rating available,No popularity available,No price available
8th & Macdonald,Midam Cafe Richmond Ltd,49.264438,-123.176476,No rating available,No popularity available,No price available
8th & Macdonald,Sahel Market & Restaurant,49.264381,-123.176471,No rating available,No popularity available,No price available
8th & Macdonald,Pure Delight Café,49.264083,-123.176608,No rating available,No popularity available,No price available
8th & Macdonald,Good Co. Kits,49.264407,-123.176798,No rating available,No popularity available,No price available
8th & Macdonald,Pane E Formaggio,49.264391,-123.178742,No rating available,No popularity available,No price available
8th & Macdonald,Fiore Famiglia,49.257944,-123.165053,No rating available,No popularity available,No price available
8th & Macdonald,Mimi's Burgers,49.264144,-123.15699,No rating available,No popularity available,No price available
8th & Macdonald,O Mio Gelato,49.257707,-123.164547,No rating available,No popularity available,No price available
8th & Macdonald,Storm City Coffee,49.264401,-123.180121,No rating available,No popularity available,No price available
8th & Macdonald,Sushi Vancouver,49.264138,-123.18018,No rating available,No popularity available,No price available
8th & Macdonald,McDonald's,49.264113,-123.17807,No rating available,No popularity available,No price available
8th & Macdonald,Jackson's Resto Butcher,49.267902,-123.15561,No rating available,No popularity available,No price available
8th & Macdonald,Evelyn's Coffee Shop,49.263681,-123.15468,No rating available,No popularity available,No price available
30th & Ontario,East is East,49.245625,-123.101484,No rating available,No popularity available,No price available
30th & Ontario,Pho Tan Vietnamese Restaurant,49.243467,-123.101057,No rating available,No popularity available,No price available
30th & Ontario,Sawasdee Thai Restaurant,49.247047,-123.100956,No rating available,No popularity available,No price available
30th & Ontario,Long's Noodle House,49.241294,-123.101683,No rating available,No popularity available,No price available
30th & Ontario,Seasons in the Park,49.241967,-123.111957,No rating available,No popularity available,No price available
30th & Ontario,The Shameful Tiki Room,49.246181,-123.101044,No rating available,No popularity available,No price available
30th & Ontario,Matchstick Coffee Roasters,49.241902,-123.101897,No rating available,No popularity available,No price available
30th & Ontario,The Acorn,49.249622,-123.101499,No rating available,No popularity available,No price available
30th & Ontario,Le Marché St. George,49.245736,-123.094357,No rating available,No popularity available,No price available
30th & Ontario,Cafe Trafiq,49.247366,-123.100902,No rating available,No popularity available,No price available
30th & Ontario,Zakkushi Charcoal Grill,49.249014,-123.101285,No rating available,No popularity available,No price available
30th & Ontario,Hawkers Delight Deli,49.248411,-123.101315,No rating available,No popularity available,No price available
30th & Ontario,Chickpea,49.24665,-123.100922,No rating available,No popularity available,No price available
30th & Ontario,Aperture Coffee Bar,49.248437,-123.10075,No rating available,No popularity available,No price available
30th & Ontario,The Fish Counter,49.250765,-123.101191,No rating available,No popularity available,No price available
30th & Ontario,Autostrada Osteria,49.241804,-123.101726,No rating available,No popularity available,No price available
30th & Ontario,Grub,49.246501,-123.10099,No rating available,No popularity available,No price available
30th & Ontario,The Arbor,49.250013,-123.101289,No rating available,No popularity available,No price available
30th & Ontario,Cocoet Olive Fine Foods Ltd,49.251707,-123.10119,No rating available,No popularity available,No price available
30th & Ontario,Portland Craft,49.250708,-123.101186,No rating available,No popularity available,No price available
30th & Ontario,Sun Sui Wah Seafood Restaurant,49.250435,-123.100757,No rating available,No popularity available,No price available
30th & Ontario,Continental Coffee,49.24734,-123.101467,No rating available,No popularity available,No price available
30th & Ontario,Dream Sushi Japanese Restaurant,49.245852,-123.101503,No rating available,No popularity available,No price available
30th & Ontario,Helen's Grill,49.248684,-123.100852,No rating available,No popularity available,No price available
30th & Ontario,The Main,49.247443,-123.100989,No rating available,No popularity available,No price available
30th & Ontario,Chaise Lounge,49.245125,-123.101036,No rating available,No popularity available,No price available
30th & Ontario,Caffè Artigiano,49.24923,-123.100817,No rating available,No popularity available,No price available
30th & Ontario,Ivy's Kitchen Vietnamese Restaurant,49.243431,-123.101135,No rating available,No popularity available,No price available
30th & Ontario,Breka Bakery & Cafe,49.243843,-123.101008,No rating available,No popularity available,No price available
30th & Ontario,Haiyi Seafood Restaurant,49.242133,-123.101268,No rating available,No popularity available,No price available
30th & Ontario,Geek Sweets,49.245193,-123.101528,No rating available,No popularity available,No price available
30th & Ontario,Corner 29 筷炒,49.244622,-123.101099,No rating available,No popularity available,No price available
30th & Ontario,Sushi Hub,49.241186,-123.101917,No rating available,No popularity available,No price available
30th & Ontario,bb.q Chicken,49.244842,-123.101012,No rating available,No popularity available,No price available
30th & Ontario,Blenz Coffee,49.247706,-123.100931,No rating available,No popularity available,No price available
30th & Ontario,Pane Formaggio,49.246192,-123.101532,No rating available,No popularity available,No price available
30th & Ontario,Bob Likes Thai Food,49.251388,-123.101244,No rating available,No popularity available,No price available
30th & Ontario,McDonald's,49.245193,-123.101528,No rating available,No popularity available,No price available
30th & Ontario,The Juice Truck,49.247289,-123.100814,No rating available,No popularity available,No price available
30th & Ontario,NamNam Restaurant,49.248113,-123.101452,No rating available,No popularity available,No price available
30th & Ontario,The French Table,49.250059,-123.100806,No rating available,No popularity available,No price available
30th & Ontario,Yum Sweet Shop,49.248174,-123.100808,No rating available,No popularity available,No price available
30th & Ontario,Cambie Vietnam Restaurant,49.248308,-123.100901,No rating available,No popularity available,No price available
30th & Ontario,1/2 Roll Japanese Grill & Sushi Bar,49.248365,-123.100906,No rating available,No popularity available,No price available
30th & Ontario,Mobius Coffee & Tea,49.248561,-123.101247,No rating available,No popularity available,No price available
30th & Ontario,Quejo's Cheesebuns Inc,49.248561,-123.101247,No rating available,No popularity available,No price available
30th & Ontario,NFA Secret Chef,49.248437,-123.10075,No rating available,No popularity available,No price available
30th & Ontario,District Eleven,49.249133,-123.101539,No rating available,No popularity available,No price available
30th & Ontario,Chi House 串通一氣,49.249189,-123.101543,No rating available,No popularity available,No price available
30th & Ontario,Holy Perogy,49.250023,-123.099992,No rating available,No popularity available,No price available
Lakewood & Triumph,Parallel 49 Brewing Co,49.283798,-123.064405,No rating available,No popularity available,No price available
Lakewood & Triumph,Pallet Coffee Roasters,49.28179,-123.063911,No rating available,No popularity available,No price available
Lakewood & Triumph,Far Out Coffee Post,49.284964,-123.059959,No rating available,No popularity available,No price available
Lakewood & Triumph,Tacofino Commissary,49.281292,-123.057458,No rating available,No popularity available,No price available
Lakewood & Triumph,Jackalope's Neighbourhood Dive,49.28136,-123.058843,No rating available,No popularity available,No price available
Lakewood & Triumph,Storm Brewing Ltd,49.28202,-123.070178,No rating available,No popularity available,No price available
Lakewood & Triumph,A. Bosa and Company Ltd. Import Euro,49.279449,-123.065416,No rating available,No popularity available,No price available
Lakewood & Triumph,Aleph Eatery,49.284921,-123.065799,No rating available,No popularity available,No price available
Lakewood & Triumph,Volcano Sushi & Grill,49.281435,-123.064043,No rating available,No popularity available,No price available
Lakewood & Triumph,Tamam Fine Palestinian Cuisine,49.280974,-123.051507,No rating available,No popularity available,No price available
Lakewood & Triumph,Pepino's,49.278808,-123.070636,No rating available,No popularity available,No price available
Lakewood & Triumph,Yolks,49.28108,-123.072857,No rating available,No popularity available,No price available
Lakewood & Triumph,Andina Brewing Co,49.283433,-123.073625,No rating available,No popularity available,No price available
Lakewood & Triumph,Sushi Nanaimo,49.281528,-123.056179,No rating available,No popularity available,No price available
Lakewood & Triumph,Curry Zone,49.281302,-123.050155,No rating available,No popularity available,No price available
Lakewood & Triumph,Caffe la Tana,49.278829,-123.070719,No rating available,No popularity available,No price available
Lakewood & Triumph,Church's Chicken,49.280988,-123.057351,No rating available,No popularity available,No price available
Lakewood & Triumph,Princeton Pub,49.285019,-123.065077,No rating available,No popularity available,No price available
Lakewood & Triumph,Le Pho,49.2813,-123.054375,No rating available,No popularity available,No price available
Lakewood & Triumph,Laughing Bean Coffee,49.281405,-123.049677,No rating available,No popularity available,No price available
Lakewood & Triumph,McDonald's,49.285126,-123.06395,No rating available,No popularity available,No price available
Lakewood & Triumph,Pelican Seafood Restaurant,49.281534,-123.065999,No rating available,No popularity available,No price available
Lakewood & Triumph,The Brighton,49.281367,-123.054867,No rating available,No popularity available,No price available
Lakewood & Triumph,Dundas Eat + Drink,49.285033,-123.062238,No rating available,No popularity available,No price available
Lakewood & Triumph,Royal Palace Seafood Restaurant 敦煌海鲜酒家,49.281407,-123.060145,No rating available,No popularity available,No price available
Lakewood & Triumph,The Spelt Bakery,49.281304,-123.060624,No rating available,No popularity available,No price available
Lakewood & Triumph,Trans Am,49.284885,-123.065877,No rating available,No popularity available,No price available
Lakewood & Triumph,Pho Win,49.281047,-123.060926,No rating available,No popularity available,No price available
Lakewood & Triumph,Vietnam House,49.281016,-123.061248,No rating available,No popularity available,No price available
Lakewood & Triumph,Pacific Bread Co,49.280919,-123.061971,No rating available,No popularity available,No price available
Lakewood & Triumph,M & M Food Market,49.280868,-123.06221,No rating available,No popularity available,No price available
Lakewood & Triumph,Nonna's Cucina,49.28099,-123.060029,No rating available,No popularity available,No price available
Lakewood & Triumph,Wild Thing Snack Bar,49.284819,-123.066277,No rating available,No popularity available,No price available
Lakewood & Triumph,Passion8 Dessert Cafe,49.28136,-123.058843,No rating available,No popularity available,No price available
Lakewood & Triumph,Straight and Marrow,49.284875,-123.066282,No rating available,No popularity available,No price available
Lakewood & Triumph,Hoshi Sushi Bar,49.281375,-123.058682,No rating available,No popularity available,No price available
Lakewood & Triumph,Pennyroyal Coffee,49.281318,-123.058677,No rating available,No popularity available,No price available
Lakewood & Triumph,Dachi,49.281472,-123.05796,No rating available,No popularity available,No price available
Lakewood & Triumph,A&W Restaurant,49.281337,-123.06298,No rating available,No popularity available,No price available
Lakewood & Triumph,It's Okay,49.281337,-123.055189,No rating available,No popularity available,No price available
Lakewood & Triumph,Pine House Bakery,49.281002,-123.055405,No rating available,No popularity available,No price available
Lakewood & Triumph,Freshslice Pizza,49.281305,-123.053726,No rating available,No popularity available,No price available
Lakewood & Triumph,Rainbow Sushi Express,49.281022,-123.053702,No rating available,No popularity available,No price available
Lakewood & Triumph,Cake Master Ltd,49.281336,-123.053404,No rating available,No popularity available,No price available
Lakewood & Triumph,Flavio Cafe,49.281037,-123.070014,No rating available,No popularity available,No price available
Lakewood & Triumph,Resurrection Spirits Distillery & Tasting Room,49.282,-123.070988,No rating available,No popularity available,No price available
Lakewood & Triumph,Henry's Hip Eats,49.283809,-123.073576,No rating available,No popularity available,No price available
Lakewood & Triumph,Louis Garden Restaurant,49.281431,-123.050004,No rating available,No popularity available,No price available
Lakewood & Triumph,Nonna's Table,49.281472,-123.074432,No rating available,No popularity available,No price available
Lakewood & Triumph,Wize Coffee Leaf,49.282748,-123.064641,No rating available,No popularity available,No price available
13th & Cambie,Vij's,49.257484,-123.11482,No rating available,No popularity available,No price available
13th & Cambie,Rain or Shine,49.255054,-123.114856,No rating available,No popularity available,No price available
13th & Cambie,Rogue Kitchen & Wetbar,49.263123,-123.117652,No rating available,No popularity available,No price available
13th & Cambie,Marulilu Cafe,49.263328,-123.11402,No rating available,No popularity available,No price available
13th & Cambie,Elysian Coffee Broadway,49.263077,-123.117243,No rating available,No popularity available,No price available
13th & Cambie,Caffe Cittadella,49.26473,-123.116978,No rating available,No popularity available,No price available
13th & Cambie,Milano Coffee,49.263724,-123.108701,No rating available,No popularity available,No price available
13th & Cambie,Peaceful Restaurant,49.263051,-123.116024,No rating available,No popularity available,No price available
13th & Cambie,33 Acres Brewing Co,49.263877,-123.105307,No rating available,No popularity available,No price available
13th & Cambie,Modus Coffee,49.263182,-123.107195,No rating available,No popularity available,No price available
13th & Cambie,Paragon Tea Room,49.255425,-123.115455,No rating available,No popularity available,No price available
13th & Cambie,Elysian Coffee,49.264531,-123.105038,No rating available,No popularity available,No price available
13th & Cambie,Dutch Wooden Shoe Cafe,49.255996,-123.114855,No rating available,No popularity available,No price available
13th & Cambie,Toshi Sushi,49.256698,-123.101858,No rating available,No popularity available,No price available
13th & Cambie,Solly's Bagelry,49.264703,-123.112191,No rating available,No popularity available,No price available
13th & Cambie,The Federal Store,49.261909,-123.103193,No rating available,No popularity available,No price available
13th & Cambie,The Mighty Oak,49.254563,-123.109543,No rating available,No popularity available,No price available
13th & Cambie,Hokkaido Ramen Santouka,49.263015,-123.116994,No rating available,No popularity available,No price available
13th & Cambie,33 Brewing Experiment,49.263903,-123.105634,No rating available,No popularity available,No price available
13th & Cambie,Dynasty Seafood Restaurant 皇朝海鮮酒家,49.263675,-123.12143,No rating available,No popularity available,No price available
13th & Cambie,Hachibei Restaurant,49.256894,-123.121582,No rating available,No popularity available,No price available
13th & Cambie,Banana Leaf,49.263207,-123.122445,No rating available,No popularity available,No price available
13th & Cambie,Café Gloucester 告羅士打餐廳,49.25562,-123.114904,No rating available,No popularity available,No price available
13th & Cambie,Uma Sushi,49.26372,-123.11381,No rating available,No popularity available,No price available
13th & Cambie,De Dutch Pannekoek House,49.257312,-123.127051,No rating available,No popularity available,No price available
13th & Cambie,Max's Bakery & Delicatessen,49.257605,-123.127562,No rating available,No popularity available,No price available
13th & Cambie,Tropika Malaysian & Thai Cuisine 星馬印,49.25887,-123.115262,No rating available,No popularity available,No price available
13th & Cambie,Starbucks,49.254096,-123.115018,No rating available,No popularity available,No price available
13th & Cambie,Big Rock Brewery Ltd,49.267411,-123.111042,No rating available,No popularity available,No price available
13th & Cambie,Thai Away Home,49.25578,-123.115323,No rating available,No popularity available,No price available
13th & Cambie,Viet House,49.254529,-123.114973,No rating available,No popularity available,No price available
13th & Cambie,Wendy's,49.263714,-123.114614,No rating available,No popularity available,No price available
13th & Cambie,New Sun Restaurant,49.259246,-123.115213,No rating available,No popularity available,No price available
13th & Cambie,Tropika on Cambie,49.258926,-123.115267,No rating available,No popularity available,No price available
13th & Cambie,Alley 16,49.257052,-123.114864,No rating available,No popularity available,No price available
13th & Cambie,Tim Hortons,49.263583,-123.123288,No rating available,No popularity available,No price available
13th & Cambie,Pho Extreme Xe Lua,49.26339,-123.114269,No rating available,No popularity available,No price available
13th & Cambie,Blenz Coffee,49.263421,-123.115731,No rating available,No popularity available,No price available
13th & Cambie,Mr. Japanese Curry,49.263756,-123.113732,No rating available,No popularity available,No price available
13th & Cambie,Java Express,49.262578,-123.119471,No rating available,No popularity available,No price available
13th & Cambie,Tractor,49.263546,-123.118013,No rating available,No popularity available,No price available
13th & Cambie,Willow Cafe Bakery,49.257182,-123.12185,No rating available,No popularity available,No price available
13th & Cambie,Stages Restaurant & Lounge,49.263515,-123.120119,No rating available,No popularity available,No price available
13th & Cambie,Kishu Mountain Restaurant,49.263201,-123.122201,No rating available,No popularity available,No price available
13th & Cambie,Broadway Indochine Kitchen + Bar,49.263218,-123.10444,No rating available,No popularity available,No price available
13th & Cambie,Le Bread Pan Cafe Bakery,49.267047,-123.119609,No rating available,No popularity available,No price available
13th & Cambie,Dalina,49.263171,-123.126091,No rating available,No popularity available,No price available
13th & Cambie,Happy Wood BBQ House,49.263634,-123.125725,No rating available,No popularity available,No price available
13th & Cambie,Joon's Kitchen,49.258033,-123.127274,No rating available,No popularity available,No price available
13th & Cambie,Mount Pleasant Vintage & Provisions,49.265839,-123.106285,No rating available,No popularity available,No price available
Arbutus & Nanton,Starbucks,49.249141,-123.155056,No rating available,No popularity available,No price available
Arbutus & Nanton,Subway,49.244594,-123.153936,No rating available,No popularity available,No price available
Arbutus & Nanton,Van Den Bosch Patisserie Belge & Bakery,49.248317,-123.153526,No rating available,No popularity available,No price available
Arbutus & Nanton,Arbutus Club Lounge,49.248513,-123.152083,No rating available,No popularity available,No price available
Arbutus & Nanton,Arbutus Club Fireside Grille,49.248652,-123.152419,No rating available,No popularity available,No price available
Arbutus & Nanton,A&W Restaurant,49.248801,-123.155027,No rating available,No popularity available,No price available
Arbutus & Nanton,Mello,49.24465,-123.153941,No rating available,No popularity available,No price available
Arbutus & Nanton,Flying Wedge,49.241416,-123.156096,No rating available,No popularity available,No price available
Arbutus & Nanton,The Dawg House,49.242054,-123.160447,No rating available,No popularity available,No price available
14th & Fraser,Les Faux Bourgeois,49.257306,-123.089824,No rating available,No popularity available,No price available
14th & Fraser,The Gluten Free Epicurean,49.257337,-123.090395,No rating available,No popularity available,No price available
14th & Fraser,Matchstick Coffee,49.257296,-123.090229,No rating available,No popularity available,No price available
14th & Fraser,Osteria Savio Volpe,49.257425,-123.09097,No rating available,No popularity available,No price available
14th & Fraser,Sal y Limon,49.256878,-123.08922,No rating available,No popularity available,No price available
14th & Fraser,Ba-Le Sandwich Shop,49.256821,-123.089215,No rating available,No popularity available,No price available
14th & Fraser,Anh and Chi,49.255019,-123.100904,No rating available,No popularity available,No price available
14th & Fraser,Earnest Ice Cream,49.249334,-123.089877,No rating available,No popularity available,No price available
14th & Fraser,Toshi Sushi,49.256698,-123.101858,No rating available,No popularity available,No price available
14th & Fraser,AJ's Brooklyn Pizza Joint,49.262989,-123.098175,No rating available,No popularity available,No price available
14th & Fraser,49th Parallel Coffee Roast,49.259164,-123.100851,No rating available,No popularity available,No price available
14th & Fraser,Sushi Hil,49.255379,-123.101015,No rating available,No popularity available,No price available
14th & Fraser,12 Kings Pub,49.260337,-123.096652,No rating available,No popularity available,No price available
14th & Fraser,Uncle Abe's,49.258129,-123.100925,No rating available,No popularity available,No price available
14th & Fraser,Hime Japanese Restaurant,49.262963,-123.09874,No rating available,No popularity available,No price available
14th & Fraser,Ignite Pizzeria,49.262233,-123.100706,No rating available,No popularity available,No price available
14th & Fraser,The General Public,49.255843,-123.101541,No rating available,No popularity available,No price available
14th & Fraser,Burdock & Co,49.260915,-123.100756,No rating available,No popularity available,No price available
14th & Fraser,Sing Sing Beer Bar,49.260652,-123.100815,No rating available,No popularity available,No price available
14th & Fraser,JJ Bean Coffee Roasters,49.258242,-123.100935,No rating available,No popularity available,No price available
14th & Fraser,Slickity Jim's Chat & Chew,49.253968,-123.101139,No rating available,No popularity available,No price available
14th & Fraser,Bells and Whistles,49.255678,-123.089524,No rating available,No popularity available,No price available
14th & Fraser,Colony Bar Main Street,49.258994,-123.100836,No rating available,No popularity available,No price available
14th & Fraser,BT Cafe Ltd,49.254208,-123.085181,No rating available,No popularity available,No price available
14th & Fraser,Forecast Coffee,49.258541,-123.100798,No rating available,No popularity available,No price available
14th & Fraser,Pho Long Restaurant,49.254901,-123.090188,No rating available,No popularity available,No price available
14th & Fraser,Thai Son Restaurant,49.262942,-123.096873,No rating available,No popularity available,No price available
14th & Fraser,Lucy's Eastside Diner,49.260971,-123.100761,No rating available,No popularity available,No price available
14th & Fraser,Blenz Coffee,49.26399,-123.08082,No rating available,No popularity available,No price available
14th & Fraser,Caffe Barney,49.262516,-123.10073,No rating available,No popularity available,No price available
14th & Fraser,Tim Hortons,49.266273,-123.084421,No rating available,No popularity available,No price available
14th & Fraser,Mercato Di Luigi,49.259619,-123.091318,No rating available,No popularity available,No price available
14th & Fraser,Oh Carolina Café & Grocery,49.259619,-123.091318,No rating available,No popularity available,No price available
14th & Fraser,M P Social House,49.25573,-123.090177,No rating available,No popularity available,No price available
14th & Fraser,Vera's Burger Shack,49.259015,-123.100919,No rating available,No popularity available,No price available
14th & Fraser,The Five Point,49.25713,-123.100921,No rating available,No popularity available,No price available
14th & Fraser,Bee Kim Heng,49.255092,-123.090285,No rating available,No popularity available,No price available
14th & Fraser,Church's Chicken,49.254066,-123.101309,No rating available,No popularity available,No price available
14th & Fraser,Van 168 Coffee,49.254719,-123.086117,No rating available,No popularity available,No price available
14th & Fraser,Noor Convienience & Donair,49.262311,-123.089438,No rating available,No popularity available,No price available
14th & Fraser,Nha Trang Restaurant,49.26229,-123.088463,No rating available,No popularity available,No price available
14th & Fraser,Hail Mary's,49.262352,-123.089604,No rating available,No popularity available,No price available
14th & Fraser,Domino's Pizza,49.262677,-123.091578,No rating available,No popularity available,No price available
14th & Fraser,Joe's Grill on Main Street,49.257995,-123.100832,No rating available,No popularity available,No price available
14th & Fraser,Black Christmas 5,49.260373,-123.096574,No rating available,No popularity available,No price available
14th & Fraser,Shilla Korean Restaurant,49.253806,-123.083119,No rating available,No popularity available,No price available
14th & Fraser,Sprezzatura,49.26132,-123.097709,No rating available,No popularity available,No price available
14th & Fraser,Baker's Market,49.258736,-123.099354,No rating available,No popularity available,No price available
14th & Fraser,Seiza,49.257758,-123.100326,No rating available,No popularity available,No price available
14th & Fraser,Plant Burgers,49.257769,-123.100813,No rating available,No popularity available,No price available
15th & Victoria (Trout Lake),Commercial Street Cafe,49.252597,-123.068255,No rating available,No popularity available,No price available
15th & Victoria (Trout Lake),The Burrow,49.259684,-123.06999,No rating available,No popularity available,No price available
15th & Victoria (Trout Lake),Jamjar,49.264442,-123.069501,No rating available,No popularity available,No price available
15th & Victoria (Trout Lake),St. Augustine's,49.263783,-123.069526,No rating available,No popularity available,No price available
15th & Victoria (Trout Lake),Szechuan Chong Qing Restaurant,49.259355,-123.069557,No rating available,No popularity available,No price available
15th & Victoria (Trout Lake),Uncle Fatih's Pizza,49.262476,-123.070064,No rating available,No popularity available,No price available
15th & Victoria (Trout Lake),Jj Bean House of Coffee,49.264932,-123.069461,No rating available,No popularity available,No price available
15th & Victoria (Trout Lake),Bon's Off Broadway,49.262642,-123.056936,No rating available,No popularity available,No price available
15th & Victoria (Trout Lake),Boteco Brasil,49.261643,-123.056933,No rating available,No popularity available,No price available
15th & Victoria (Trout Lake),Commercial Sushi,49.261683,-123.069997,No rating available,No popularity available,No price available
15th & Victoria (Trout Lake),Banners Restaurant,49.259314,-123.070283,No rating available,No popularity available,No price available
15th & Victoria (Trout Lake),Starbucks,49.261836,-123.068388,No rating available,No popularity available,No price available
15th & Victoria (Trout Lake),Broadway Station Sushi,49.262121,-123.071089,No rating available,No popularity available,No price available
15th & Victoria (Trout Lake),Naruto Sushi,49.259875,-123.070088,No rating available,No popularity available,No price available
15th & Victoria (Trout Lake),Carousel Cafe in the park,49.254835,-123.065443,No rating available,No popularity available,No price available
15th & Victoria (Trout Lake),Libby's Kitchen,49.254537,-123.066472,No rating available,No popularity available,No price available
15th & Victoria (Trout Lake),Subway,49.262421,-123.057161,No rating available,No popularity available,No price available
15th & Victoria (Trout Lake),Park Drive Venue GP,49.254106,-123.068301,No rating available,No popularity available,No price available
15th & Victoria (Trout Lake),Junior’s Bar & Grill,49.254106,-123.068301,No rating available,No popularity available,No price available
15th & Victoria (Trout Lake),Flourist Mill & Bakery,49.253936,-123.068287,No rating available,No popularity available,No price available
15th & Victoria (Trout Lake),Gojo Cafe,49.259205,-123.069625,No rating available,No popularity available,No price available
15th & Victoria (Trout Lake),Collective Goods,49.253189,-123.067737,No rating available,No popularity available,No price available
15th & Victoria (Trout Lake),Cafe Algarve,49.259726,-123.070156,No rating available,No popularity available,No price available
15th & Victoria (Trout Lake),Varadero Cuban Cafe,49.259875,-123.070088,No rating available,No popularity available,No price available
15th & Victoria (Trout Lake),Maxim's Bakery Ltd,49.252494,-123.06784,No rating available,No popularity available,No price available
15th & Victoria (Trout Lake),Lucha Libre Food Truck,49.252314,-123.069123,No rating available,No popularity available,No price available
15th & Victoria (Trout Lake),Freshslice Pizza,49.261579,-123.069583,No rating available,No popularity available,No price available
15th & Victoria (Trout Lake),Daddy's Kitchen,49.261615,-123.069505,No rating available,No popularity available,No price available
15th & Victoria (Trout Lake),Subway,49.261739,-123.070002,No rating available,No popularity available,No price available
15th & Victoria (Trout Lake),Donair Dude,49.262671,-123.069513,No rating available,No popularity available,No price available
15th & Victoria (Trout Lake),Hon’s Wonton House,49.26262,-123.070644,No rating available,No popularity available,No price available
15th & Victoria (Trout Lake),Golden Spring Restaurant,49.262039,-123.056966,No rating available,No popularity available,No price available
15th & Victoria (Trout Lake),Pizza King,49.26221,-123.074341,No rating available,No popularity available,No price available
15th & Victoria (Trout Lake),Mr Greek Donair Store,49.264134,-123.070043,No rating available,No popularity available,No price available
15th & Victoria (Trout Lake),Tatchan Noodle,49.251769,-123.05626,No rating available,No popularity available,No price available
15th & Victoria (Trout Lake),Seto Cafe,49.264499,-123.069506,No rating available,No popularity available,No price available
15th & Victoria (Trout Lake),Shining Garden Restaurant,49.262642,-123.056936,No rating available,No popularity available,No price available
15th & Victoria (Trout Lake),Poke Five,49.264489,-123.06991,No rating available,No popularity available,No price available
15th & Victoria (Trout Lake),77K Freeze,49.264726,-123.069525,No rating available,No popularity available,No price available
15th & Victoria (Trout Lake),ScribesRFC,49.264875,-123.069456,No rating available,No popularity available,No price available
15th & Victoria (Trout Lake),The Deli by Continental Sausage,49.262719,-123.056131,No rating available,No popularity available,No price available
15th & Victoria (Trout Lake),Zen Time Warp,49.263919,-123.073188,No rating available,No popularity available,No price available
15th & Victoria (Trout Lake),Blenz Coffee,49.262614,-123.069508,No rating available,No popularity available,No price available
15th & Victoria (Trout Lake),Escobar Food Co Inc,49.253848,-123.067712,No rating available,No popularity available,No price available
15th & Victoria (Trout Lake),Sobhi Mediterranean Food,49.253848,-123.067712,No rating available,No popularity available,No price available
15th & Victoria (Trout Lake),Flourist,49.253936,-123.068287,No rating available,No popularity available,No price available
15th & Victoria (Trout Lake),Chongquing,49.259334,-123.069474,No rating available,No popularity available,No price available
15th & Victoria (Trout Lake),G & l Friendly Restaurant,49.259273,-123.070118,No rating available,No popularity available,No price available
15th & Victoria (Trout Lake),Tayo Enterprise Ltd,49.261626,-123.069992,No rating available,No popularity available,No price available
15th & Victoria (Trout Lake),Jamjar Commercial Drive,49.264442,-123.069501,No rating available,No popularity available,No price available
Robson & Hornby,Hawksworth Restaurant,49.283302,-123.11938,No rating available,No popularity available,No price available
Robson & Hornby,Le Crocodile Restaurant,49.282578,-123.125234,No rating available,No popularity available,No price available
Robson & Hornby,Boulevard Kitchen & Oyster Bar,49.283021,-123.123893,No rating available,No popularity available,No price available
Robson & Hornby,Thierry,49.284766,-123.122662,No rating available,No popularity available,No price available
Robson & Hornby,Joe Fortes Seafood & Chop House,49.284956,-123.124545,No rating available,No popularity available,No price available
Robson & Hornby,JOEY Burrard,49.282707,-123.123298,No rating available,No popularity available,No price available
Robson & Hornby,Coast Restaurant,49.284719,-123.123145,No rating available,No popularity available,No price available
Robson & Hornby,49th Parallel Café & Lucky's Doughnuts - THURLOW,49.286052,-123.122935,No rating available,No popularity available,No price available
Robson & Hornby,Gotham Steakhouse & Cocktail Bar,49.282814,-123.115925,No rating available,No popularity available,No price available
Robson & Hornby,The Keg Steakhouse + Bar,49.283447,-123.116466,No rating available,No popularity available,No price available
Robson & Hornby,Cafe Medina,49.280498,-123.116863,No rating available,No popularity available,No price available
Robson & Hornby,Notch8 Restaurant,49.283844,-123.120961,No rating available,No popularity available,No price available
Robson & Hornby,Pallet Coffee Roasters,49.279891,-123.123788,No rating available,No popularity available,No price available
Robson & Hornby,Japadog,49.280189,-123.118297,No rating available,No popularity available,No price available
Robson & Hornby,Bel Cafe,49.283302,-123.11938,No rating available,No popularity available,No price available
Robson & Hornby,Breka Bakery & Cafe,49.285765,-123.127128,No rating available,No popularity available,No price available
Robson & Hornby,Koffie,49.287035,-123.11953,No rating available,No popularity available,No price available
Robson & Hornby,Konbiniya,49.286326,-123.127825,No rating available,No popularity available,No price available
Robson & Hornby,Homer St. Cafe and Bar,49.278455,-123.11823,No rating available,No popularity available,No price available
Robson & Hornby,Dublin Calling,49.280066,-123.121369,No rating available,No popularity available,No price available
Robson & Hornby,Diva at the Met,49.28388,-123.118206,No rating available,No popularity available,No price available
Robson & Hornby,Ramen Danbo - Robson,49.287499,-123.12898,No rating available,No popularity available,No price available
Robson & Hornby,Breka Bakery & Café,49.285619,-123.114947,No rating available,No popularity available,No price available
Robson & Hornby,Fanny Bay Oyster Bar & Shellfish Market,49.278557,-123.114183,No rating available,No popularity available,No price available
Robson & Hornby,JINYA Ramen Bar - Vancouver Downtown,49.280369,-123.117907,No rating available,No popularity available,No price available
Robson & Hornby,Earls,49.281585,-123.123689,No rating available,No popularity available,No price available
Robson & Hornby,Minami Restaurant,49.275269,-123.120797,No rating available,No popularity available,No price available
Robson & Hornby,The Poke Guy,49.283786,-123.112032,No rating available,No popularity available,No price available
Robson & Hornby,Breka Bakery & Cafe,49.278414,-123.12788,No rating available,No popularity available,No price available
Robson & Hornby,The Templeton,49.278491,-123.124398,No rating available,No popularity available,No price available
Robson & Hornby,Miku,49.286766,-123.112205,No rating available,No popularity available,No price available
Robson & Hornby,La Taqueria,49.282983,-123.110585,No rating available,No popularity available,No price available
Robson & Hornby,Cactus Club Cafe,49.289603,-123.118045,No rating available,No popularity available,No price available
Robson & Hornby,Revolver,49.283261,-123.109473,No rating available,No popularity available,No price available
Robson & Hornby,Tap & Barrel,49.289881,-123.116933,No rating available,No popularity available,No price available
Robson & Hornby,Nemesis Coffee,49.282787,-123.110244,No rating available,No popularity available,No price available
Robson & Hornby,The Keg Steakhouse + Bar - Yaletown,49.27671,-123.11946,No rating available,No popularity available,No price available
Robson & Hornby,JOEY Bentall One,49.286469,-123.118589,No rating available,No popularity available,No price available
Robson & Hornby,The Magnet,49.282484,-123.111029,No rating available,No popularity available,No price available
Robson & Hornby,Steamworks Brewing Co,49.284949,-123.110915,No rating available,No popularity available,No price available
Robson & Hornby,Timbertrain Coffee Roasters,49.283744,-123.109189,No rating available,No popularity available,No price available
Robson & Hornby,The Famous Warehouse,49.279552,-123.122866,No rating available,No popularity available,No price available
Robson & Hornby,Trees Organic Coffee,49.284816,-123.114392,No rating available,No popularity available,No price available
Robson & Hornby,Tableau Bar Bistro,49.287591,-123.123553,No rating available,No popularity available,No price available
Robson & Hornby,Score on Davie,49.282285,-123.134538,No rating available,No popularity available,No price available
Robson & Hornby,Jam Cafe,49.280306,-123.109627,No rating available,No popularity available,No price available
Robson & Hornby,Rodney's Oyster House,49.274378,-123.123236,No rating available,No popularity available,No price available
Robson & Hornby,Fritz European Fry House,49.277256,-123.126564,No rating available,No popularity available,No price available
Robson & Hornby,Matchstick Coffee Roasters,49.274404,-123.126239,No rating available,No popularity available,No price available
Robson & Hornby,Greenhorn Cafe,49.286624,-123.133935,No rating available,No popularity available,No price available
Cardero & Robson,Guu with Garlic,49.290278,-123.133923,No rating available,No popularity available,No price available
Cardero & Robson,Pappa Roti,49.28892,-123.13113,No rating available,No popularity available,No price available
Cardero & Robson,Kingyo Izakaya 金魚居酒屋,49.290643,-123.136956,No rating available,No popularity available,No price available
Cardero & Robson,Kosoo Restaurant,49.289064,-123.132602,No rating available,No popularity available,No price available
Cardero & Robson,Ramen Danbo - Robson,49.287499,-123.12898,No rating available,No popularity available,No price available
Cardero & Robson,Marutama Ra-men,49.290515,-123.133538,No rating available,No popularity available,No price available
Cardero & Robson,Nero Belgian Waffle Bar,49.290654,-123.133874,No rating available,No popularity available,No price available
Cardero & Robson,Greenhorn Cafe,49.286624,-123.133935,No rating available,No popularity available,No price available
Cardero & Robson,Cardero Bottega,49.287092,-123.135598,No rating available,No popularity available,No price available
Cardero & Robson,Konbiniya,49.286326,-123.127825,No rating available,No popularity available,No price available
Cardero & Robson,Cardero's Restaurant & Marine Pub,49.291554,-123.127461,No rating available,No popularity available,No price available
Cardero & Robson,Peaked Pies,49.28964,-123.138493,No rating available,No popularity available,No price available
Cardero & Robson,Breka Bakery & Cafe,49.285765,-123.127128,No rating available,No popularity available,No price available
Cardero & Robson,Zakkushi Japanese Restaurant,49.291138,-123.136268,No rating available,No popularity available,No price available
Cardero & Robson,Cora Breakfast & Lunch,49.287551,-123.129634,No rating available,No popularity available,No price available
Cardero & Robson,Menya Itto,49.288683,-123.130623,No rating available,No popularity available,No price available
Cardero & Robson,Legendary Noodle House,49.288425,-123.139849,No rating available,No popularity available,No price available
Cardero & Robson,Joe Fortes Seafood & Chop House,49.284956,-123.124545,No rating available,No popularity available,No price available
Cardero & Robson,Ladurée,49.285337,-123.125632,No rating available,No popularity available,No price available
Cardero & Robson,CinCin Ristorante + Bar,49.285312,-123.126197,No rating available,No popularity available,No price available
Cardero & Robson,49th Parallel Café & Lucky's Doughnuts - THURLOW,49.286052,-123.122935,No rating available,No popularity available,No price available
Cardero & Robson,Le Crocodile Restaurant,49.282578,-123.125234,No rating available,No popularity available,No price available
Cardero & Robson,Score on Davie,49.282285,-123.134538,No rating available,No popularity available,No price available
Cardero & Robson,Cactus Club Cafe,49.28666,-123.14278,No rating available,No popularity available,No price available
Cardero & Robson,Guu,49.284107,-123.125364,No rating available,No popularity available,No price available
Cardero & Robson,The Inukshuk,49.284303,-123.143552,No rating available,No popularity available,No price available
Cardero & Robson,Thierry,49.284766,-123.122662,No rating available,No popularity available,No price available
Cardero & Robson,H Tasting Lounge,49.29228,-123.128821,No rating available,No popularity available,No price available
Cardero & Robson,CRAFT Beer Market English Bay,49.286629,-123.14221,No rating available,No popularity available,No price available
Cardero & Robson,Ukrainian Village Restaurant,49.291374,-123.135883,No rating available,No popularity available,No price available
Cardero & Robson,Earl's Restaurant,49.285939,-123.126494,No rating available,No popularity available,No price available
Cardero & Robson,Coast Restaurant,49.284719,-123.123145,No rating available,No popularity available,No price available
Cardero & Robson,Koffie,49.287035,-123.11953,No rating available,No popularity available,No price available
Cardero & Robson,Timber,49.286953,-123.129015,No rating available,No popularity available,No price available
Cardero & Robson,Tableau Bar Bistro,49.287591,-123.123553,No rating available,No popularity available,No price available
Cardero & Robson,Boulevard Kitchen & Oyster Bar,49.283021,-123.123893,No rating available,No popularity available,No price available
Cardero & Robson,Hello Nori,49.285744,-123.126153,No rating available,No popularity available,No price available
Cardero & Robson,Red Robin Gourmet Burgers,49.284591,-123.125081,No rating available,No popularity available,No price available
Cardero & Robson,Red Umbrella Cafe,49.286418,-123.140245,No rating available,No popularity available,No price available
Cardero & Robson,Starbucks,49.287236,-123.141532,No rating available,No popularity available,No price available
Cardero & Robson,JOEY Burrard,49.282707,-123.123298,No rating available,No popularity available,No price available
Cardero & Robson,Jugo Juice,49.284869,-123.124862,No rating available,No popularity available,No price available
Cardero & Robson,Blenz Coffee,49.290242,-123.137571,No rating available,No popularity available,No price available
Cardero & Robson,Melriches Coffeehouse,49.282224,-123.134289,No rating available,No popularity available,No price available
Cardero & Robson,Starbucks,49.287916,-123.123743,No rating available,No popularity available,No price available
Cardero & Robson,Casa Dolce Gelato & Coffee,49.290849,-123.127076,No rating available,No popularity available,No price available
Cardero & Robson,Stepho's Souvlaki Greek Taverna,49.280705,-123.131969,No rating available,No popularity available,No price available
Cardero & Robson,Matchstick,49.282738,-123.134576,No rating available,No popularity available,No price available
Cardero & Robson,Starbucks,49.287606,-123.119822,No rating available,No popularity available,No price available
Cardero & Robson,Samurai Japanese Restaurant,49.28053,-123.131711,No rating available,No popularity available,No price available
1st & Scotia,Earnest Ice Cream,49.268876,-123.102894,No rating available,No popularity available,No price available
1st & Scotia,Red Truck Beer,49.268585,-123.097272,No rating available,No popularity available,No price available
1st & Scotia,Narrow Lounge,49.268334,-123.100495,No rating available,No popularity available,No price available
1st & Scotia,R & B Brewing Inc,49.26727,-123.103568,No rating available,No popularity available,No price available
1st & Scotia,Cartems Donuterie,49.265642,-123.100591,No rating available,No popularity available,No price available
1st & Scotia,Brassneck Brewery,49.265811,-123.100605,No rating available,No popularity available,No price available
1st & Scotia,Kranky Cafe,49.267206,-123.09975,No rating available,No popularity available,No price available
1st & Scotia,Nemesis Coffee,49.267091,-123.092602,No rating available,No popularity available,No price available
1st & Scotia,Pure Bread,49.266631,-123.104568,No rating available,No popularity available,No price available
1st & Scotia,Fife Bakery,49.268088,-123.10307,No rating available,No popularity available,No price available
1st & Scotia,Elysian Coffee,49.264531,-123.105038,No rating available,No popularity available,No price available
1st & Scotia,33 Acres Brewing Co,49.263877,-123.105307,No rating available,No popularity available,No price available
1st & Scotia,Faculty Brewing Co,49.268552,-123.104488,No rating available,No popularity available,No price available
1st & Scotia,Tractor Foods - Olympic Village,49.269535,-123.102869,No rating available,No popularity available,No price available
1st & Scotia,Terra Breads,49.271451,-123.107006,No rating available,No popularity available,No price available
1st & Scotia,Creekside Park,49.274585,-123.102893,No rating available,No popularity available,No price available
1st & Scotia,AJ's Brooklyn Pizza Joint,49.262989,-123.098175,No rating available,No popularity available,No price available
1st & Scotia,Main Street Brewing Co,49.264745,-123.099216,No rating available,No popularity available,No price available
1st & Scotia,CRAFT Beer Market Vancouver,49.270591,-123.106447,No rating available,No popularity available,No price available
1st & Scotia,Fox Cabaret,49.264298,-123.101206,No rating available,No popularity available,No price available
1st & Scotia,Pizzeria Farina,49.276561,-123.10014,No rating available,No popularity available,No price available
1st & Scotia,Electric Bicycle Brewing,49.267115,-123.104285,No rating available,No popularity available,No price available
1st & Scotia,Gusto a Taste of Italy,49.271332,-123.105861,No rating available,No popularity available,No price available
1st & Scotia,Milano Coffee,49.263724,-123.108701,No rating available,No popularity available,No price available
1st & Scotia,The Federal Store,49.261909,-123.103193,No rating available,No popularity available,No price available
1st & Scotia,Modus Coffee,49.263182,-123.107195,No rating available,No popularity available,No price available
1st & Scotia,Amato Gelato Cafe,49.270065,-123.102995,No rating available,No popularity available,No price available
1st & Scotia,Nook,49.269521,-123.109276,No rating available,No popularity available,No price available
1st & Scotia,Torafuku,49.275928,-123.0996,No rating available,No popularity available,No price available
1st & Scotia,JJ Bean Coffee Roasters,49.270118,-123.109002,No rating available,No popularity available,No price available
1st & Scotia,33 Brewing Experiment,49.263903,-123.105634,No rating available,No popularity available,No price available
1st & Scotia,Hime Japanese Restaurant,49.262963,-123.09874,No rating available,No popularity available,No price available
1st & Scotia,Tacofino Ocho,49.266312,-123.104622,No rating available,No popularity available,No price available
1st & Scotia,Ignite Pizzeria,49.262233,-123.100706,No rating available,No popularity available,No price available
1st & Scotia,Argo Cafe,49.268608,-123.104493,No rating available,No popularity available,No price available
1st & Scotia,Bodega on Main,49.275439,-123.099639,No rating available,No popularity available,No price available
1st & Scotia,Nirvana Restaurant,49.264411,-123.101216,No rating available,No popularity available,No price available
1st & Scotia,Tap & Barrel,49.271827,-123.106065,No rating available,No popularity available,No price available
1st & Scotia,Burdock & Co,49.260915,-123.100756,No rating available,No popularity available,No price available
1st & Scotia,12 Kings Pub,49.260337,-123.096652,No rating available,No popularity available,No price available
1st & Scotia,Sing Sing Beer Bar,49.260652,-123.100815,No rating available,No popularity available,No price available
1st & Scotia,Starbucks,49.269499,-123.102947,No rating available,No popularity available,No price available
1st & Scotia,American Hotel,49.276324,-123.099634,No rating available,No popularity available,No price available
1st & Scotia,Upstairs at Campagnolo,49.275382,-123.099635,No rating available,No popularity available,No price available
1st & Scotia,Gene Coffeebar,49.263721,-123.100671,No rating available,No popularity available,No price available
1st & Scotia,Starbucks,49.271053,-123.087585,No rating available,No popularity available,No price available
1st & Scotia,Big Rock Brewery Ltd,49.267411,-123.111042,No rating available,No popularity available,No price available
1st & Scotia,Brewhall,49.269396,-123.103425,No rating available,No popularity available,No price available
1st & Scotia,Como Taperia,49.264715,-123.100431,No rating available,No popularity available,No price available
1st & Scotia,Lucy's Eastside Diner,49.260971,-123.100761,No rating available,No popularity available,No price available
10th & Fraser,Les Faux Bourgeois,49.257306,-123.089824,No rating available,No popularity available,No price available
10th & Fraser,The Gluten Free Epicurean,49.257337,-123.090395,No rating available,No popularity available,No price available
10th & Fraser,Osteria Savio Volpe,49.257425,-123.09097,No rating available,No popularity available,No price available
10th & Fraser,Matchstick Coffee,49.257296,-123.090229,No rating available,No popularity available,No price available
10th & Fraser,Sal y Limon,49.256878,-123.08922,No rating available,No popularity available,No price available
10th & Fraser,AJ's Brooklyn Pizza Joint,49.262989,-123.098175,No rating available,No popularity available,No price available
10th & Fraser,Nemesis Coffee,49.267091,-123.092602,No rating available,No popularity available,No price available
10th & Fraser,Cartems Donuterie,49.265642,-123.100591,No rating available,No popularity available,No price available
10th & Fraser,49th Parallel Coffee Roast,49.259164,-123.100851,No rating available,No popularity available,No price available
10th & Fraser,Brassneck Brewery,49.265811,-123.100605,No rating available,No popularity available,No price available
10th & Fraser,12 Kings Pub,49.260337,-123.096652,No rating available,No popularity available,No price available
10th & Fraser,Fox Cabaret,49.264298,-123.101206,No rating available,No popularity available,No price available
10th & Fraser,Main Street Brewing Co,49.264745,-123.099216,No rating available,No popularity available,No price available
10th & Fraser,Hime Japanese Restaurant,49.262963,-123.09874,No rating available,No popularity available,No price available
10th & Fraser,Kranky Cafe,49.267206,-123.09975,No rating available,No popularity available,No price available
10th & Fraser,Ignite Pizzeria,49.262233,-123.100706,No rating available,No popularity available,No price available
10th & Fraser,Red Truck Beer,49.268585,-123.097272,No rating available,No popularity available,No price available
10th & Fraser,Uncle Abe's,49.258129,-123.100925,No rating available,No popularity available,No price available
10th & Fraser,Burdock & Co,49.260915,-123.100756,No rating available,No popularity available,No price available
10th & Fraser,Sing Sing Beer Bar,49.260652,-123.100815,No rating available,No popularity available,No price available
